{
  "course": "Pub Golf Leiden",
  "city": "Leiden",
  "holes": [
    {
      "id": 1,
      "hole": 1,
      "name": "North End",
      "address": "Noordeinde 55, 2311 CB Leiden",
      "lat": 52.160347,
      "lng": 4.484630,
      "par": 4,
      "drink": "Pint Heineken 0.5L",
      "description": "Kickstart de ronde in de North End! Drink je pint in vier flinke slokken en zet de toon voor de rest van de ronde."
    },
    {
      "id": 2,
      "hole": 2,
      "name": "De Duke",
      "address": "Oude Singel 2, 2312 RA Leiden",
      "lat": 52.16297022524535,
      "lng": 4.486165569524645,
      "par": 4,
      "drink": "Duvel 0.33L",
      "description": "Klasse en sfeer bij De Duke. Een Duvel is niet zomaar een biertje — vier slokken voor dit krachtige blonde sterk bier."
    },
    {
      "id": 3,
      "hole": 3,
      "name": "Bar Olaf",
      "address": "Hooigracht 49, 2312 TL Leiden",
      "lat": 52.15848928268576,
      "lng": 4.49615322436267,
      "par": 5,
      "drink": "Frozen Pornstar (cocktail)",
      "description": "De Frozen Pornstar is het geheime wapen van Bar Olaf. Vijf slokken voor deze ijskoude cocktail — makkelijker dan het klinkt!"
    },
    {
      "id": 4,
      "hole": 4,
      "name": "De Uyl",
      "address": "Nieuwstraat 28, 2312 KC Leiden",
      "lat": 52.15751841330419,
      "lng": 4.494371439704753,
      "par": 4,
      "drink": "Kasteel Rouge 0.33L",
      "description": "Bij De Uyl schenken ze de Kasteel Rouge: een Belgisch kersenbier dat smaakt naar meer. Vier slokken voor dit rode pareltje."
    },
    {
      "id": 5,
      "hole": 5,
      "name": "Lemmy's",
      "address": "Morsstraat 24, 2312 BM Leiden",
      "lat": 52.16199463224861,
      "lng": 4.483693241839897,
      "par": 3,
      "drink": "Jack Daniel's & Cola",
      "description": "Rock & Roll! Bij Lemmy's eer je de legende met een Jack & Cola. Drie slokken — snel en hard, zoals Motörhead."
    },
    {
      "id": 6,
      "hole": 6,
      "name": "Café De Vergulde Kruik",
      "address": "Haarlemmerstraat 20-24, 2312 GA Leiden",
      "lat": 52.1617099121509,
      "lng": 4.48632638388265,
      "par": 4,
      "drink": "Grolsch 0.3L",
      "description": "Een klassiek Leids bruincafé met jaren­lange traditie. De Grolsch moet in vier nette slokken naar binnen. Houd het hoofd koel!"
    },
    {
      "id": 7,
      "hole": 7,
      "name": "Estaminet Schommelen",
      "address": "Lokhorststraat 19, 2311 TA Leiden",
      "lat": 52.158472938254164,
      "lng": 4.487432382033754,
      "par": 4,
      "drink": "Leffe Blond 0.33L",
      "description": "Belgische sfeer midden in Leiden. De Leffe Blond eist vier bedachtzame slokken. Haast je niet — geniet van elke slok."
    },
    {
      "id": 8,
      "hole": 8,
      "name": "De Twee Spieghels",
      "address": "Nieuwstraat 11, 2312 KA Leiden",
      "lat": 52.15823318505106, 
      "lng": 4.4932836108692396,
      "par": 4,
      "drink": "Amstel 0.3L",
      "description": "Een Leidse klassieker. Met een frisse Amstel en vier gelijke slokken laat je zien dat je de druk aankan."
    },
    {
      "id": 9,
      "hole": 9,
      "name": "De Veste",
      "address": "2e Binnenvestgracht 15, 2312 BZ Leiden",
      "lat": 52.16361533291393,
      "lng": 4.48466562621171,
      "par": 6,
      "drink": "Grimbergen Blond 0.33L",
      "description": "Het ultieme slotakkoord! Bij De Veste vier je het einde van de ronde met een Grimbergen. Zes slokken — savour every sip. Proost op de winnaar!"
    }
  ]
}
