{
  "course": "Pub Golf Leiden",
  "city": "Leiden",
  "holes": [
    {
      "id": 1,
      "hole": 1,
      "name": "North End",
      "address": "Morsstraat 11, 2312 BX Leiden",
      "lat": 52.16280,
      "lng": 4.48920,
      "par": 4,
      "drink": "Pint Heineken 0.5L",
      "description": "Kickstart de ronde in de North End! Drink je pint in vier flinke slokken en zet de toon voor de rest van de ronde."
    },
    {
      "id": 2,
      "hole": 2,
      "name": "De Duke",
      "address": "Haarlemmerstraat 44, 2312 GH Leiden",
      "lat": 52.15820,
      "lng": 4.48710,
      "par": 4,
      "drink": "Duvel 0.33L",
      "description": "Klasse en sfeer bij De Duke. Een Duvel is niet zomaar een biertje — vier slokken voor dit krachtige blonde sterk bier."
    },
    {
      "id": 3,
      "hole": 3,
      "name": "Bar Olaf",
      "address": "Aalmarkt 7, 2312 HM Leiden",
      "lat": 52.15710,
      "lng": 4.48850,
      "par": 5,
      "drink": "Frozen Pornstar (cocktail)",
      "description": "De Frozen Pornstar is het geheime wapen van Bar Olaf. Vijf slokken voor deze ijskoude cocktail — makkelijker dan het klinkt!"
    },
    {
      "id": 4,
      "hole": 4,
      "name": "De Uyl",
      "address": "Donkersteeg 6, 2311 TL Leiden",
      "lat": 52.15900,
      "lng": 4.49150,
      "par": 4,
      "drink": "Kasteel Rouge 0.33L",
      "description": "Bij De Uyl schenken ze de Kasteel Rouge: een Belgisch kersenbier dat smaakt naar meer. Vier slokken voor dit rode pareltje."
    },
    {
      "id": 5,
      "hole": 5,
      "name": "Lemmy's",
      "address": "Nieuwe Rijn 44, 2312 JE Leiden",
      "lat": 52.15610,
      "lng": 4.48770,
      "par": 3,
      "drink": "Jack Daniel's & Cola",
      "description": "Rock & Roll! Bij Lemmy's eer je de legende met een Jack & Cola. Drie slokken — snel en hard, zoals Motörhead."
    },
    {
      "id": 6,
      "hole": 6,
      "name": "Café De Vergulde Kruik",
      "address": "Pieterskerkgracht 21, 2311 TP Leiden",
      "lat": 52.15780,
      "lng": 4.49020,
      "par": 4,
      "drink": "Grolsch 0.3L",
      "description": "Een klassiek Leids bruincafé met jaren­lange traditie. De Grolsch moet in vier nette slokken naar binnen. Houd het hoofd koel!"
    },
    {
      "id": 7,
      "hole": 7,
      "name": "Estaminet Schommelen",
      "address": "Breestraat 145, 2311 CL Leiden",
      "lat": 52.15550,
      "lng": 4.49100,
      "par": 4,
      "drink": "Leffe Blond 0.33L",
      "description": "Belgische sfeer midden in Leiden. De Leffe Blond eist vier bedachtzame slokken. Haast je niet — geniet van elke slok."
    },
    {
      "id": 8,
      "hole": 8,
      "name": "De Twee Spieghels",
      "address": "Breestraat 81, 2311 CK Leiden",
      "lat": 52.15840,
      "lng": 4.49038,
      "par": 4,
      "drink": "Amstel 0.3L",
      "description": "Een Leidse klassieker. Met een frisse Amstel en vier gelijke slokken laat je zien dat je de druk aankan."
    },
    {
      "id": 9,
      "hole": 9,
      "name": "De Veste",
      "address": "Burgsteeg 3, 2312 JR Leiden",
      "lat": 52.15760,
      "lng": 4.48500,
      "par": 6,
      "drink": "Grimbergen Blond 0.33L",
      "description": "Het ultieme slotakkoord! Bij De Veste vier je het einde van de ronde met een Grimbergen. Zes slokken — savour every sip. Proost op de winnaar!"
    }
  ]
}
